{
"type": "FeatureCollection",
"name": "MRF Locations",
"crs": { "type": "name", "properties": { "name": "urn:ogc:def:crs:OGC:1.3:CRS84" } },
"features": [
{ "type": "Feature", "properties": { "Name": "PUNTA-BAJA MRF  9° 1'60.00\"N, 117°38'13.00\"E", "description": null, "timestamp": null, "begin": null, "end": null, "altitudeMode": null, "tessellate": -1, "extrude": 0, "visibility": -1, "drawOrder": null, "icon": null }, "geometry": { "type": "Point", "coordinates": [ 117.636944444444396, 9.033333333333335, 0.0 ] } },
{ "type": "Feature", "properties": { "Name": "CANDAWAGA MRF  8°52'24.92\"N, 117°30'4.30\"E", "description": null, "timestamp": null, "begin": null, "end": null, "altitudeMode": null, "tessellate": -1, "extrude": 0, "visibility": -1, "drawOrder": null, "icon": null }, "geometry": { "type": "Point", "coordinates": [ 117.501194444444494, 8.873588888888889, 0.0 ] } },
{ "type": "Feature", "properties": { "Name": "PANALINGAAN MRF  8°47'18.00\"N, 117°27'59.00\"E", "description": null, "timestamp": null, "begin": null, "end": null, "altitudeMode": null, "tessellate": -1, "extrude": 0, "visibility": -1, "drawOrder": null, "icon": null }, "geometry": { "type": "Point", "coordinates": [ 117.466388888888901, 8.788333333333334, 0.0 ] } },
{ "type": "Feature", "properties": { "Name": "TABURI MRF  8°43'33.66\"N, 117°22'29.60\"E", "description": null, "timestamp": null, "begin": null, "end": null, "altitudeMode": null, "tessellate": -1, "extrude": 0, "visibility": -1, "drawOrder": null, "icon": null }, "geometry": { "type": "Point", "coordinates": [ 117.374888888888904, 8.726017, 0.0 ] } },
{ "type": "Feature", "properties": { "Name": "CULASIAN MRF 8°50'8.00\"N, 117°29'15.00\"E", "description": null, "timestamp": null, "begin": null, "end": null, "altitudeMode": null, "tessellate": -1, "extrude": 0, "visibility": -1, "drawOrder": null, "icon": null }, "geometry": { "type": "Point", "coordinates": [ 117.4875, 8.835555555555556, 0.0 ] } },
{ "type": "Feature", "properties": { "Name": "RANSANG MRF  8°54'34.00\"N, 117°32'60.00\"E", "description": null, "timestamp": null, "begin": null, "end": null, "altitudeMode": null, "tessellate": -1, "extrude": 0, "visibility": -1, "drawOrder": null, "icon": null }, "geometry": { "type": "Point", "coordinates": [ 117.55, 8.909444444444444, 0.0 ] } },
{ "type": "Feature", "properties": { "Name": "CAMPUNG-ULAY  MRF 8°57'37.00\"N, 117°36'50.00\"E", "description": null, "timestamp": null, "begin": null, "end": null, "altitudeMode": null, "tessellate": -1, "extrude": 0, "visibility": -1, "drawOrder": null, "icon": null }, "geometry": { "type": "Point", "coordinates": [ 117.613888888888894, 8.960277777777778, 0.0 ] } },
{ "type": "Feature", "properties": { "Name": "BUNOG MRF  9° 4'23.00\"N, 117°45'51.00\"E", "description": null, "timestamp": null, "begin": null, "end": null, "altitudeMode": null, "tessellate": -1, "extrude": 0, "visibility": -1, "drawOrder": null, "icon": null }, "geometry": { "type": "Point", "coordinates": [ 117.764166666666696, 9.073055555555555, 0.0 ] } },
{ "type": "Feature", "properties": { "Name": "IRAAN MRF  9° 2'47.00\"N, 117°42'19.00\"E", "description": null, "timestamp": null, "begin": null, "end": null, "altitudeMode": null, "tessellate": -1, "extrude": 0, "visibility": -1, "drawOrder": null, "icon": null }, "geometry": { "type": "Point", "coordinates": [ 117.705277777777795, 9.046388888888888, 0.0 ] } },
{ "type": "Feature", "properties": { "Name": "Latud MRF", "description": null, "timestamp": null, "begin": null, "end": null, "altitudeMode": null, "tessellate": -1, "extrude": 0, "visibility": -1, "drawOrder": null, "icon": null }, "geometry": { "type": "Point", "coordinates": [ 117.298135333566904, 8.637760044269038, 0.0 ] } },
{ "type": "Feature", "properties": { "Name": "Canipaan MRF", "description": null, "timestamp": null, "begin": null, "end": null, "altitudeMode": null, "tessellate": -1, "extrude": 0, "visibility": -1, "drawOrder": null, "icon": null }, "geometry": { "type": "Point", "coordinates": [ 117.263631662098703, 8.572313929471404, 0.0 ] } }
]
}
